"id","name","lat","lon","address","can_visit","image_url","label_url","lob_id","place_id","duration","rating","region_id"
52,Kiehn Group,57.14234161376953,31.17035484313965,"16 Daystar Hill",true,https://picsum.photos/1985/1000,http://dummyimage.com/30x30.png/cc0000/ffffff,112,25,227,5.0,12
139,"Homenick, Zboncak and Yundt",58.55030059814453,31.27215003967285,"25 Packers Junction",false,https://picsum.photos/1917/1007,http://dummyimage.com/30x30.png/5fa2dd/ffffff,199,8,226,2.0,21
141,"Wisoky, Carroll and Kuvalis",58.52928924560547,31.24622917175293,"55785 Kim Plaza",false,https://picsum.photos/1988/1047,http://dummyimage.com/30x30.png/dddddd/000000,201,6,304,5.0,21
147,Ratke-Daniel,57.14234161376953,31.17035484313965,"04014 Morrow Junction",false,https://picsum.photos/1902/1077,http://dummyimage.com/30x30.png/5fa2dd/ffffff,207,25,172,5.0,12
148,Anderson-Feil,58.5360107421875,31.277042388916016,"56 Hallows Court",true,https://picsum.photos/1944/1084,http://dummyimage.com/30x30.png/cc0000/ffffff,208,4,177,1.0,21
150,Conn Group,58.00486755371094,30.8050594329834,"097 Fairview Crossing",false,https://picsum.photos/1993/1047,http://dummyimage.com/30x30.png/cc0000/ffffff,210,19,399,1.0,14
153,"Abbott, Tillman and Powlowski",58.40476989746094,33.27123260498047,"8 Ridge Oak Drive",false,https://picsum.photos/1988/1076,http://dummyimage.com/30x30.png/dddddd/000000,213,40,337,3.0,8
154,King Inc,58.00486755371094,30.8050594329834,"15269 Helena Place",false,https://picsum.photos/1985/1024,http://dummyimage.com/30x30.png/ff4444/ffffff,214,19,346,5.0,14
159,"Keebler, Vandervort and Schowalter",57.39387893676758,31.40201187133789,"442 Pepper Wood Parkway",false,https://picsum.photos/1977/1042,http://dummyimage.com/30x30.png/ff4444/ffffff,219,21,426,5.0,13
1,Kuhn-Goldner,58.591697692871094,35.796627044677734,"65539 Center Way",false,https://picsum.photos/1957/1034,http://dummyimage.com/30x30.png/cc0000/ffffff,61,53,233,3.0,5
2,Langosh-Marks,57.149742126464844,31.170955657958984,"7217 Norway Maple Trail",false,https://picsum.photos/1962/1033,http://dummyimage.com/30x30.png/cc0000/ffffff,62,23,451,1.0,12
4,Bosco Inc,58.14661407470703,31.12923812866211,"03 Lakewood Parkway",false,https://picsum.photos/1936/1017,http://dummyimage.com/30x30.png/ff4444/ffffff,64,60,109,5.0,18
8,Zboncak-Stanton,57.14234161376953,31.17035484313965,"71 Iowa Way",true,https://picsum.photos/1923/1020,http://dummyimage.com/30x30.png/dddddd/000000,68,25,102,5.0,12
5,"Abernathy, Sanford and Bartoletti",58.52928924560547,31.24622917175293,"601 Esker Street",false,https://picsum.photos/1932/1042,http://dummyimage.com/30x30.png/dddddd/000000,65,6,429,3.0,21
163,"Flatley, Kshlerin and Buckridge",57.983123779296875,31.35205841064453,"35993 Welch Parkway",false,https://picsum.photos/1955/1064,http://dummyimage.com/30x30.png/cc0000/ffffff,223,58,291,4.0,18
47,Crona-Hamill,57.98398971557617,33.25475311279297,"108 Miller Point",true,https://picsum.photos/1921/1062,http://dummyimage.com/30x30.png/cc0000/ffffff,107,33,255,4.0,9
48,McCullough LLC,59.122581481933594,31.669546127319336,"975 John Wall Plaza",false,https://picsum.photos/1992/1066,http://dummyimage.com/30x30.png/dddddd/000000,108,44,208,2.0,1
49,Hickle and Sons,58.65080261230469,32.345462799072266,"1094 Mayfield Lane",false,https://picsum.photos/1919/1012,http://dummyimage.com/30x30.png/cc0000/ffffff,109,43,267,3.0,2
50,"Tromp, Hand and Hickle",58.14661407470703,31.12923812866211,"45 Shasta Court",true,https://picsum.photos/1969/1024,http://dummyimage.com/30x30.png/dddddd/000000,110,60,297,1.0,18
171,Mayer-Denesik,57.967193603515625,33.27277755737305,"518 Fordem Street",false,https://picsum.photos/1950/1032,http://dummyimage.com/30x30.png/dddddd/000000,231,35,309,2.0,9
174,Dooley-McGlynn,57.967193603515625,33.27277755737305,"2024 Eastlawn Avenue",true,https://picsum.photos/1926/1049,http://dummyimage.com/30x30.png/5fa2dd/ffffff,234,35,229,1.0,9
16,Fadel-Zulauf,58.00486755371094,30.8050594329834,"864 Schlimgen Terrace",true,https://picsum.photos/1953/1001,http://dummyimage.com/30x30.png/dddddd/000000,76,19,360,1.0,14
19,"Hintz, Padberg and Ruecker",58.54792404174805,31.25747299194336,"44835 Northridge Street",true,https://picsum.photos/1990/1000,http://dummyimage.com/30x30.png/cc0000/ffffff,79,7,172,5.0,21
21,Yundt-Raynor,59.122581481933594,31.669546127319336,"6 Saint Paul Pass",false,https://picsum.photos/1910/1063,http://dummyimage.com/30x30.png/dddddd/000000,81,44,357,4.0,1
22,Erdman-Cartwright,57.967193603515625,33.27277755737305,"4188 Springs Park",true,https://picsum.photos/1975/1015,http://dummyimage.com/30x30.png/5fa2dd/ffffff,82,35,417,4.0,9
23,"Waelchi, Goldner and Swift",59.12004852294922,33.33942794799805,"6 Hollow Ridge Parkway",true,https://picsum.photos/1918/1031,http://dummyimage.com/30x30.png/5fa2dd/ffffff,83,48,343,2.0,3
26,"Ankunding, Terry and Hane",58.591697692871094,35.796627044677734,"341 Fuller Parkway",true,https://picsum.photos/1935/1015,http://dummyimage.com/30x30.png/dddddd/000000,86,53,429,4.0,5
28,Koelpin Inc,59.122581481933594,31.669546127319336,"06856 Golf Course Street",false,https://picsum.photos/1933/1054,http://dummyimage.com/30x30.png/cc0000/ffffff,88,44,214,5.0,1
29,Howell and Sons,57.332637786865234,32.194313049316406,"63 Pennsylvania Parkway",true,https://picsum.photos/1958/1008,http://dummyimage.com/30x30.png/cc0000/ffffff,89,29,460,5.0,11
30,Cormier-Marvin,58.52928924560547,31.24622917175293,"32 Northport Junction",false,https://picsum.photos/1946/1013,http://dummyimage.com/30x30.png/5fa2dd/ffffff,90,6,463,4.0,21
34,Harris-Flatley,58.63023376464844,34.54736328125,"65204 Lerdahl Alley",false,https://picsum.photos/1938/1020,http://dummyimage.com/30x30.png/dddddd/000000,94,56,382,4.0,6
35,Yundt LLC,58.60784149169922,35.818599700927734,"046 Stoughton Drive",true,https://picsum.photos/1925/1082,http://dummyimage.com/30x30.png/cc0000/ffffff,95,54,364,5.0,5
38,Gutkowski LLC,59.121524810791016,33.35114288330078,"9069 Fieldstone Place",false,https://picsum.photos/1921/1053,http://dummyimage.com/30x30.png/cc0000/ffffff,98,47,182,5.0,3
40,Medhurst LLC,58.52669143676758,31.28219223022461,"3875 Haas Drive",false,https://picsum.photos/1974/1059,http://dummyimage.com/30x30.png/5fa2dd/ffffff,100,1,287,5.0,21
43,"Kertzmann, Breitenberg and Gerhold",58.14661407470703,31.12923812866211,"750 Bashford Crossing",true,https://picsum.photos/1965/1027,http://dummyimage.com/30x30.png/5fa2dd/ffffff,103,60,425,4.0,18
44,Howell-Bartell,58.14661407470703,31.12923812866211,"1319 Gerald Crossing",false,https://picsum.photos/1928/1060,http://dummyimage.com/30x30.png/cc0000/ffffff,104,60,475,2.0,18
46,Okuneva-Gislason,57.31475067138672,32.07964324951172,"2 Merry Circle",true,https://picsum.photos/1978/1092,http://dummyimage.com/30x30.png/cc0000/ffffff,106,27,322,5.0,11
175,Hermiston-Zulauf,58.14661407470703,31.12923812866211,"5 Anderson Crossing",false,https://picsum.photos/1971/1046,http://dummyimage.com/30x30.png/ff4444/ffffff,235,60,134,2.0,18
32,Labadie LLC,58.15838623046875,31.830074310302734,"0 Nobel Lane",false,https://picsum.photos/1954/1039,http://dummyimage.com/30x30.png/5fa2dd/ffffff,92,,159,4.0,19
93,Reichert Group,58.901275634765625,34.51139831542969,"8962 Golden Leaf Park",true,https://picsum.photos/1961/1004,http://dummyimage.com/30x30.png/5fa2dd/ffffff,153,50,110,1.0,4
94,"McGlynn, Sipes and Klocko",58.77505111694336,33.43653869628906,"4 La Follette Trail",false,https://picsum.photos/1928/1062,http://dummyimage.com/30x30.png/ff4444/ffffff,154,49,472,2.0,3
97,"Windler, Bechtelar and Schultz",57.99040603637695,30.77029800415039,"6973 North Street",true,https://picsum.photos/1935/1012,http://dummyimage.com/30x30.png/cc0000/ffffff,157,17,213,3.0,14
99,Hammes-Jakubowski,57.68111801147461,32.979148864746094,"2050 Kropf Trail",false,https://picsum.photos/1950/1016,http://dummyimage.com/30x30.png/cc0000/ffffff,159,31,480,2.0,10
100,Hoppe and Sons,58.03955078125,30.376850128173828,"2378 Cordelia Avenue",false,https://picsum.photos/1905/1056,http://dummyimage.com/30x30.png/ff4444/ffffff,160,16,440,2.0,15
102,"Ankunding, Hansen and Torphy",57.556087493896484,32.47909927368164,"43599 Sachs Alley",false,https://picsum.photos/1996/1065,http://dummyimage.com/30x30.png/cc0000/ffffff,162,30,371,1.0,10
103,"Shields, Quitzon and Schulist",57.977481842041016,33.25664138793945,"9993 Donald Center",true,https://picsum.photos/1962/1073,http://dummyimage.com/30x30.png/cc0000/ffffff,163,34,368,5.0,9
107,Wyman-Botsford,58.466636657714844,34.92235565185547,"4 Forest Run Way",true,https://picsum.photos/1937/1096,http://dummyimage.com/30x30.png/ff4444/ffffff,167,55,435,2.0,6
112,Nolan and Sons,58.25010299682617,32.52373123168945,"33332 Golf Trail",true,https://picsum.photos/1982/1015,http://dummyimage.com/30x30.png/ff4444/ffffff,172,37,481,1.0,20
113,Simonis and Sons,59.121524810791016,33.35114288330078,"95522 Bayside Road",true,https://picsum.photos/1951/1043,http://dummyimage.com/30x30.png/ff4444/ffffff,173,47,342,5.0,3
114,Abshire LLC,57.31475067138672,32.07964324951172,"1 Mayer Crossing",false,https://picsum.photos/1991/1015,http://dummyimage.com/30x30.png/dddddd/000000,174,27,152,1.0,11
115,Renner-Price,57.99040603637695,30.77029800415039,"72478 3rd Pass",true,https://picsum.photos/1912/1095,http://dummyimage.com/30x30.png/dddddd/000000,175,17,254,1.0,14
122,"Hansen, Kling and Ebert",58.53300857543945,31.293350219726562,"751 Sunbrook Avenue",false,https://picsum.photos/1919/1083,http://dummyimage.com/30x30.png/cc0000/ffffff,182,3,329,4.0,21
109,"Tromp, Hand and Hickle",57.977664947509766,33.25664138793945,"640 Cambridge Trail",true,https://picsum.photos/1941/1041,http://dummyimage.com/30x30.png/dddddd/000000,169,,206,4.0,9
110,Denesik-Hartmann,57.97475051879883,33.267112731933594,"1 Corscot Parkway",false,https://picsum.photos/1962/1081,http://dummyimage.com/30x30.png/5fa2dd/ffffff,170,,484,4.0,9
111,Kunde Group,57.98134994506836,33.29637908935547,"4081 American Ash Trail",true,https://picsum.photos/1995/1097,http://dummyimage.com/30x30.png/ff4444/ffffff,171,,433,1.0,9
116,"Sawayn, Bode and Stanton",58.39595413208008,33.27534866333008,"801 Tennessee Parkway",true,https://picsum.photos/1912/1040,http://dummyimage.com/30x30.png/cc0000/ffffff,176,,290,5.0,8
117,Schumm Inc,58.39071273803711,33.188106536865234,"28999 Saint Paul Court",false,https://picsum.photos/1974/1059,http://dummyimage.com/30x30.png/5fa2dd/ffffff,177,,152,3.0,8
118,"Leffler, MacGyver and Blanda",58.37906265258789,33.20098114013672,"3717 8th Circle",false,https://picsum.photos/1989/1047,http://dummyimage.com/30x30.png/cc0000/ffffff,178,,321,5.0,8
119,Nolan and Sons,58.459049224853516,33.37507629394531,"9 Lawn Pass",true,https://picsum.photos/1967/1092,http://dummyimage.com/30x30.png/ff4444/ffffff,179,,103,4.0,8
120,Bashirian-Watsica,58.50912094116211,33.15637969970703,"83 Meadow Valley Lane",true,https://picsum.photos/1978/1022,http://dummyimage.com/30x30.png/ff4444/ffffff,180,,396,1.0,8
121,Glover-Bode,58.47386169433594,32.99039077758789,"8 Vernon Road",false,https://picsum.photos/1901/1083,http://dummyimage.com/30x30.png/ff4444/ffffff,181,,188,2.0,8
125,"Hackett, Kuvalis and Rice",58.38956832885742,33.87436294555664,"6 Acker Alley",false,https://picsum.photos/1992/1033,http://dummyimage.com/30x30.png/5fa2dd/ffffff,185,,475,3.0,7
126,Kovacek-Pacocha,58.377689361572266,33.90998458862305,"500 Londonderry Way",false,https://picsum.photos/1964/1048,http://dummyimage.com/30x30.png/ff4444/ffffff,186,,161,5.0,7
129,"Marquardt, Marquardt and Olson",58.370845794677734,34.10996627807617,"103 Village Green Point",true,https://picsum.photos/1949/1027,http://dummyimage.com/30x30.png/cc0000/ffffff,189,,198,4.0,7
45,"Orn, Labadie and Waters",58.57263946533203,30.486026763916016,"619 Mcguire Pass",true,https://picsum.photos/1906/1098,http://dummyimage.com/30x30.png/dddddd/000000,105,,264,1.0,17
130,"Flatley, Kshlerin and Buckridge",58.567535400390625,33.93536376953125,"3 Del Sol Road",false,https://picsum.photos/1911/1049,http://dummyimage.com/30x30.png/dddddd/000000,190,,466,3.0,7
131,Rodriguez-Erdman,58.63407516479492,34.543731689453125,"16249 Banding Place",false,https://picsum.photos/1987/1092,http://dummyimage.com/30x30.png/dddddd/000000,191,,294,4.0,6
132,Kris-Dibbert,58.53511428833008,35.021995544433594,"7573 Crescent Oaks Road",true,https://picsum.photos/1952/1011,http://dummyimage.com/30x30.png/5fa2dd/ffffff,192,,259,1.0,6
133,"Klocko, Christiansen and Kilback",58.46856689453125,34.92552185058594,"7 Farmco Trail",false,https://picsum.photos/1994/1051,http://dummyimage.com/30x30.png/cc0000/ffffff,193,,163,4.0,6
135,Homenick-Hayes,58.428775787353516,35.15538787841797,"20 Iowa Hill",true,https://picsum.photos/1985/1006,http://dummyimage.com/30x30.png/cc0000/ffffff,195,,432,3.0,6
137,Heathcote-Brekke,58.36922836303711,35.10285949707031,"5872 Anderson Way",false,https://picsum.photos/1957/1052,http://dummyimage.com/30x30.png/ff4444/ffffff,197,,214,5.0,6
138,Littel Inc,58.3353157043457,35.04595184326172,"3333 Hansons Street",false,https://picsum.photos/1940/1021,http://dummyimage.com/30x30.png/dddddd/000000,198,,183,3.0,6
140,Ryan-Legros,58.65265655517578,35.620750427246094,"000 Red Cloud Street",false,https://picsum.photos/1994/1091,http://dummyimage.com/30x30.png/ff4444/ffffff,200,,251,2.0,5
142,Stoltenberg Group,58.72349166870117,35.82777404785156,"286 Monument Circle",false,https://picsum.photos/1938/1077,http://dummyimage.com/30x30.png/cc0000/ffffff,202,,467,2.0,5
143,Kuvalis Group,58.502933502197266,35.62934112548828,"4 Ronald Regan Court",true,https://picsum.photos/1930/1013,http://dummyimage.com/30x30.png/cc0000/ffffff,203,,273,3.0,5
144,Rau Inc,58.56144714355469,35.81266784667969,"240 Nancy Pass",false,https://picsum.photos/1937/1055,http://dummyimage.com/30x30.png/dddddd/000000,204,,158,4.0,5
145,Cormier-Marvin,58.4752082824707,35.46831512451172,"24 Rockefeller Terrace",true,https://picsum.photos/1945/1002,http://dummyimage.com/30x30.png/dddddd/000000,205,,164,3.0,5
146,"Prosacco, Casper and Gusikowski",58.439491271972656,35.3310432434082,"1524 Oneill Junction",true,https://picsum.photos/1998/1005,http://dummyimage.com/30x30.png/ff4444/ffffff,206,,396,5.0,5
149,"Beatty, Cartwright and Bartell",58.89670944213867,34.53260040283203,"74149 Becker Hill",true,https://picsum.photos/1952/1078,http://dummyimage.com/30x30.png/cc0000/ffffff,209,,411,5.0,4
64,"Deckow, Predovic and Grimes",58.00709915161133,30.35856819152832,"98065 Redwing Point",false,https://picsum.photos/1958/1087,http://dummyimage.com/30x30.png/dddddd/000000,124,,189,5.0,15
66,MacGyver-Turner,58.00459671020508,30.799652099609375,"09481 Dawn Point",true,https://picsum.photos/1976/1019,http://dummyimage.com/30x30.png/dddddd/000000,126,,216,5.0,14
67,Cormier-Homenick,57.98508071899414,30.809261322021484,"4632 Elgar Point",true,https://picsum.photos/1914/1084,http://dummyimage.com/30x30.png/5fa2dd/ffffff,127,,437,5.0,14
68,Cormier-Homenick,57.926883697509766,30.85406494140625,"4 Esch Plaza",false,https://picsum.photos/1969/1050,http://dummyimage.com/30x30.png/5fa2dd/ffffff,128,,310,1.0,14
69,"Gislason, Green and Volkman",57.89441680908203,30.822471618652344,"8125 Forster Street",false,https://picsum.photos/1987/1092,http://dummyimage.com/30x30.png/dddddd/000000,129,,307,4.0,14
72,Welch LLC,58.003822326660156,30.564815521240234,"75493 Debra Hill",true,https://picsum.photos/1914/1028,http://dummyimage.com/30x30.png/cc0000/ffffff,132,,398,3.0,14
58,Hessel Inc,58.11738586425781,30.31410789489746,"5436 Shopko Point",true,https://picsum.photos/1981/1074,http://dummyimage.com/30x30.png/ff4444/ffffff,118,,367,4.0,15
61,O'Conner and Sons,58.07138442993164,30.184932708740234,"2813 Northfield Pass",false,https://picsum.photos/1951/1065,http://dummyimage.com/30x30.png/dddddd/000000,121,,400,1.0,15
62,Torphy-Dare,57.990997314453125,30.038665771484375,"83129 Susan Road",false,https://picsum.photos/1989/1047,http://dummyimage.com/30x30.png/cc0000/ffffff,122,,379,1.0,15
63,Zulauf Inc,58.03973388671875,30.01498794555664,"46 Almo Place",true,https://picsum.photos/1947/1099,http://dummyimage.com/30x30.png/5fa2dd/ffffff,123,,418,3.0,15
15,Hoeger LLC,58.5612678527832,31.777252197265625,"799 Moland Drive",true,https://picsum.photos/1983/1033,http://dummyimage.com/30x30.png/dddddd/000000,75,,317,1.0,21
17,"Roob, Kunde and Kihn",58.54030990600586,31.33694839477539,"494 Stoughton Junction",true,https://picsum.photos/1979/1026,http://dummyimage.com/30x30.png/cc0000/ffffff,77,,228,1.0,21
18,Bogisich LLC,58.584720611572266,31.388954162597656,"308 Village Green Road",true,https://picsum.photos/1922/1024,http://dummyimage.com/30x30.png/cc0000/ffffff,78,,232,3.0,21
73,Feil and Sons,58.0078239440918,30.532543182373047,"5 Tony Park",false,https://picsum.photos/1944/1084,http://dummyimage.com/30x30.png/dddddd/000000,133,,358,5.0,14
74,Kirlin LLC,57.99463653564453,30.535804748535156,"829 Trailsway Crossing",false,https://picsum.photos/1903/1093,http://dummyimage.com/30x30.png/dddddd/000000,134,,325,4.0,14
76,"Kris, Wisozk and Bauch",57.740814208984375,30.750699996948242,"01 Porter Center",false,https://picsum.photos/1992/1009,http://dummyimage.com/30x30.png/dddddd/000000,136,,481,1.0,14
78,Conn-Morar,57.58839797973633,31.153074264526367,"5087 Susan Junction",false,https://picsum.photos/1928/1093,http://dummyimage.com/30x30.png/ff4444/ffffff,138,,148,5.0,13
79,"Wolff, Cruickshank and Kovacek",57.427207946777344,30.982786178588867,"762 Eastlawn Place",true,https://picsum.photos/1943/1081,http://dummyimage.com/30x30.png/dddddd/000000,139,,431,2.0,13
83,"Hansen, Gottlieb and Abbott",57.1474609375,31.170183181762695,"694 Jay Pass",false,https://picsum.photos/1952/1011,http://dummyimage.com/30x30.png/5fa2dd/ffffff,143,,161,1.0,12
84,"Bernhard, Conn and Nicolas",57.147789001464844,31.11256217956543,"94274 Melrose Way",false,https://picsum.photos/1988/1023,http://dummyimage.com/30x30.png/ff4444/ffffff,144,,460,3.0,12
85,Beatty-O'Conner,57.134002685546875,30.92854118347168,"45 Texas Street",true,https://picsum.photos/1981/1040,http://dummyimage.com/30x30.png/dddddd/000000,145,,180,4.0,12
88,"Trantow, Schaefer and Ziemann",57.31892013549805,32.0866813659668,"335 Pine View Center",true,https://picsum.photos/1987/1071,http://dummyimage.com/30x30.png/cc0000/ffffff,148,,384,1.0,11
89,"Keebler, Vandervort and Schowalter",57.3143310546875,32.07844161987305,"239 Mitchell Drive",true,https://picsum.photos/1994/1087,http://dummyimage.com/30x30.png/dddddd/000000,149,,314,5.0,11
90,"Kessler, Hilll and Kessler",57.31220245361328,32.08591079711914,"3 Lake View Avenue",true,https://picsum.photos/1934/1051,http://dummyimage.com/30x30.png/5fa2dd/ffffff,150,,331,2.0,11
91,"Beatty, Cartwright and Bartell",57.322628021240234,32.114662170410156,"92628 Victoria Circle",true,https://picsum.photos/1972/1053,http://dummyimage.com/30x30.png/5fa2dd/ffffff,151,,174,5.0,11
92,"Kertzmann, Breitenberg and Gerhold",57.32355499267578,32.17053985595703,"8 Harper Trail",true,https://picsum.photos/1913/1034,http://dummyimage.com/30x30.png/5fa2dd/ffffff,152,,123,3.0,11
95,Kozey-Strosin,57.40756607055664,32.33430480957031,"0385 Reinke Parkway",false,https://picsum.photos/1988/1077,http://dummyimage.com/30x30.png/5fa2dd/ffffff,155,,209,4.0,11
96,Krajcik-Littel,57.409690856933594,32.34331512451172,"39480 Melvin Point",false,https://picsum.photos/1991/1041,http://dummyimage.com/30x30.png/cc0000/ffffff,156,,226,3.0,11
98,D'Amore and Sons,57.59539031982422,32.55589294433594,"5390 Oak Center",false,https://picsum.photos/1918/1032,http://dummyimage.com/30x30.png/ff4444/ffffff,158,,217,3.0,10
101,Lemke-Hahn,57.716617584228516,33.0127067565918,"58210 Lien Street",true,https://picsum.photos/1937/1083,http://dummyimage.com/30x30.png/ff4444/ffffff,161,,262,2.0,10
104,Mann-Nolan,57.85242462158203,32.508514404296875,"4 Monica Crossing",false,https://picsum.photos/1961/1015,http://dummyimage.com/30x30.png/ff4444/ffffff,164,,143,4.0,10
105,Cummerata Inc,57.64356231689453,32.24073791503906,"14485 Maryland Court",false,https://picsum.photos/1965/1032,http://dummyimage.com/30x30.png/dddddd/000000,165,,298,4.0,10
151,"Spencer, Mitchell and Ratke",58.87076187133789,34.40393829345703,"15595 Susan Pass",true,https://picsum.photos/1966/1053,http://dummyimage.com/30x30.png/ff4444/ffffff,211,,137,5.0,4
152,Hintz LLC,58.85194396972656,35.04774475097656,"4896 Dorton Point",true,https://picsum.photos/1959/1089,http://dummyimage.com/30x30.png/ff4444/ffffff,212,,403,2.0,4
155,"Langosh, Rowe and Braun",58.804141998291016,34.462730407714844,"67 Riverside Parkway",false,https://picsum.photos/1947/1092,http://dummyimage.com/30x30.png/cc0000/ffffff,215,,251,4.0,4
156,"Anderson, Gorczany and Pfeffer",59.04426193237305,33.399452209472656,"2400 Washington Pass",true,https://picsum.photos/1998/1027,http://dummyimage.com/30x30.png/dddddd/000000,216,,342,3.0,3
157,Zemlak-Schneider,59.189998626708984,33.763668060302734,"527 Talmadge Way",true,https://picsum.photos/1968/1061,http://dummyimage.com/30x30.png/5fa2dd/ffffff,217,,283,5.0,3
158,"Nolan, Bogisich and O'Reilly",59.34194564819336,33.130615234375,"4 Fair Oaks Junction",true,https://picsum.photos/1941/1065,http://dummyimage.com/30x30.png/dddddd/000000,218,,344,2.0,3
160,Dietrich LLC,59.11676788330078,33.362701416015625,"6463 Golden Leaf Park",false,https://picsum.photos/1950/1069,http://dummyimage.com/30x30.png/ff4444/ffffff,220,,367,1.0,3
161,"Gorczany, Herzog and Jacobi",59.15318298339844,33.26530838012695,"3 Daystar Park",true,https://picsum.photos/1915/1028,http://dummyimage.com/30x30.png/cc0000/ffffff,221,,305,3.0,3
162,Balistreri-Batz,58.78457260131836,33.43362045288086,"7 2nd Way",false,https://picsum.photos/1982/1050,http://dummyimage.com/30x30.png/dddddd/000000,222,,101,1.0,3
3,"Schoen, Hermiston and Glover",58.58015441894531,31.252580642700195,"48792 Hanover Park",true,https://picsum.photos/1905/1056,http://dummyimage.com/30x30.png/dddddd/000000,63,,223,4.0,21
6,Hyatt Inc,58.52140426635742,31.27734375,"34628 Clarendon Place",true,https://picsum.photos/1921/1020,http://dummyimage.com/30x30.png/5fa2dd/ffffff,66,,345,1.0,21
7,Mosciski-Lebsack,58.52088928222656,31.27288055419922,"065 Johnson Lane",false,https://picsum.photos/1947/1088,http://dummyimage.com/30x30.png/cc0000/ffffff,67,,355,1.0,21
9,King-Bahringer,58.532493591308594,31.293352127075195,"36 Elka Crossing",true,https://picsum.photos/1972/1051,http://dummyimage.com/30x30.png/ff4444/ffffff,69,,391,3.0,21
10,Greenfelder LLC,58.53592300415039,31.248374938964844,"7 Pepper Wood Center",false,https://picsum.photos/1956/1005,http://dummyimage.com/30x30.png/cc0000/ffffff,70,,198,4.0,21
11,"Zulauf, Vandervort and Adams",58.530723571777344,31.23919105529785,"4 Pine View Alley",true,https://picsum.photos/1964/1017,http://dummyimage.com/30x30.png/ff4444/ffffff,71,,310,5.0,21
12,"Sporer, Koch and Konopelski",58.529693603515625,31.24648666381836,"592 Farragut Trail",false,https://picsum.photos/1945/1037,http://dummyimage.com/30x30.png/ff4444/ffffff,72,,446,4.0,21
13,Beier-DuBuque,58.94859313964844,31.065200805664062,"4 Hollow Ridge Park",true,https://picsum.photos/1995/1026,http://dummyimage.com/30x30.png/cc0000/ffffff,73,,423,5.0,21
14,"Ankunding, Hansen and Torphy",58.93548583984375,31.056961059570312,"40151 Clyde Gallagher Alley",false,https://picsum.photos/1977/1042,http://dummyimage.com/30x30.png/cc0000/ffffff,74,,283,3.0,21
20,"Streich, Wolf and Medhurst",58.374717712402344,31.194272994995117,"14368 Ruskin Road",true,https://picsum.photos/1913/1017,http://dummyimage.com/30x30.png/cc0000/ffffff,80,,289,3.0,21
24,Sipes Inc,58.235103607177734,32.29561996459961,"72022 Harbort Circle",false,https://picsum.photos/1951/1044,http://dummyimage.com/30x30.png/cc0000/ffffff,84,,284,1.0,20
25,"Dare, Bednar and Brekke",58.46955490112305,32.44055938720703,"82751 Truax Center",false,https://picsum.photos/1999/1080,http://dummyimage.com/30x30.png/dddddd/000000,85,,161,3.0,20
27,Wilderman Group,57.928340911865234,31.857589721679688,"300 Dahle Street",true,https://picsum.photos/1964/1038,http://dummyimage.com/30x30.png/5fa2dd/ffffff,87,,404,3.0,19
31,"Bernier, Purdy and Veum",57.95663070678711,31.61530113220215,"51704 New Castle Crossing",true,https://picsum.photos/1929/1033,http://dummyimage.com/30x30.png/cc0000/ffffff,91,,223,4.0,19
33,Kutch Inc,58.00664138793945,31.297956466674805,"4967 Ludington Circle",true,https://picsum.photos/1959/1083,http://dummyimage.com/30x30.png/dddddd/000000,93,,426,2.0,18
36,Smith Group,57.68231201171875,31.555644989013672,"692 Mallory Court",false,https://picsum.photos/1986/1074,http://dummyimage.com/30x30.png/ff4444/ffffff,96,,304,3.0,18
37,Wilderman Inc,57.984214782714844,31.351457595825195,"23 Glacier Hill Way",false,https://picsum.photos/1963/1077,http://dummyimage.com/30x30.png/cc0000/ffffff,97,,248,2.0,18
39,Kirlin LLC,57.997955322265625,31.364160537719727,"45 Eagan Street",true,https://picsum.photos/1959/1017,http://dummyimage.com/30x30.png/cc0000/ffffff,99,,132,4.0,18
41,"Funk, Konopelski and Bechtelar",57.99850082397461,31.34811019897461,"36245 Arkansas Terrace",true,https://picsum.photos/1987/1079,http://dummyimage.com/30x30.png/ff4444/ffffff,101,,403,2.0,18
42,"Wolff, Cruickshank and Kovacek",58.1254997253418,31.437026977539062,"262 Novick Way",false,https://picsum.photos/1900/1054,http://dummyimage.com/30x30.png/dddddd/000000,102,,171,1.0,18
53,Crona-Rohan,58.205448150634766,30.8769474029541,"8 Clyde Gallagher Park",true,https://picsum.photos/1900/1088,http://dummyimage.com/30x30.png/cc0000/ffffff,113,,257,1.0,16
164,"Dooley, Quitzon and Jast",59.07568359375,33.05509948730469,"3773 Jana Way",false,https://picsum.photos/1912/1099,http://dummyimage.com/30x30.png/5fa2dd/ffffff,224,,283,4.0,3
165,"Tromp, Miller and Rempel",58.849281311035156,32.22031784057617,"3 Lawn Parkway",false,https://picsum.photos/1982/1018,http://dummyimage.com/30x30.png/cc0000/ffffff,225,,126,3.0,2
166,"Donnelly, O'Kon and Cummerata",58.85504913330078,32.24211883544922,"8 Northridge Road",true,https://picsum.photos/1979/1026,http://dummyimage.com/30x30.png/dddddd/000000,226,,146,2.0,2
167,"Yundt, Rath and Dickens",58.84208679199219,32.27507781982422,"66790 Artisan Place",false,https://picsum.photos/1922/1024,http://dummyimage.com/30x30.png/cc0000/ffffff,227,,397,5.0,2
168,"Goldner, Schaefer and Welch",58.81214141845703,32.200233459472656,"08390 Veith Lane",true,https://picsum.photos/1945/1087,http://dummyimage.com/30x30.png/dddddd/000000,228,,397,5.0,2
169,Jacobson Group,58.83720016479492,32.212249755859375,"451 Browning Court",true,https://picsum.photos/1935/1096,http://dummyimage.com/30x30.png/cc0000/ffffff,229,,137,2.0,2
170,Barrows-Baumbach,58.77878952026367,32.58990478515625,"32164 Nelson Avenue",false,https://picsum.photos/1953/1003,http://dummyimage.com/30x30.png/5fa2dd/ffffff,230,,287,2.0,2
172,Lockman Inc,58.69045639038086,32.574459075927734,"87220 Jana Road",true,https://picsum.photos/1961/1015,http://dummyimage.com/30x30.png/cc0000/ffffff,232,,286,5.0,2
173,"Welch, Schaefer and Bernier",58.70343017578125,32.66389465332031,"73971 Duke Terrace",true,https://picsum.photos/1994/1026,http://dummyimage.com/30x30.png/cc0000/ffffff,233,,249,1.0,2
176,Zulauf-Fritsch,59.15850830078125,31.927284240722656,"95 Dahle Road",true,https://picsum.photos/1970/1026,http://dummyimage.com/30x30.png/dddddd/000000,236,,152,2.0,1
177,Gorczany LLC,59.122581481933594,31.650745391845703,"15974 Judy Plaza",true,https://picsum.photos/1904/1032,http://dummyimage.com/30x30.png/5fa2dd/ffffff,237,,473,3.0,1
178,Torphy-Dare,59.12531280517578,31.697608947753906,"19854 Eastlawn Lane",true,https://picsum.photos/1935/1031,http://dummyimage.com/30x30.png/cc0000/ffffff,238,,336,2.0,1
179,Lemke and Sons,59.17816925048828,31.716753005981445,"7415 Kedzie Avenue",true,https://picsum.photos/1969/1028,http://dummyimage.com/30x30.png/5fa2dd/ffffff,239,,447,5.0,1
180,"Schmeler, Conn and Johnston",58.897464752197266,31.663108825683594,"3091 Barby Terrace",false,https://picsum.photos/1915/1015,http://dummyimage.com/30x30.png/ff4444/ffffff,240,,169,4.0,1
123,King-Bahringer,57.842193603515625,32.49120330810547,"8792 Dahle Center",true,https://picsum.photos/1925/1082,http://dummyimage.com/30x30.png/dddddd/000000,183,32,410,1.0,10
124,Nader-King,58.52928924560547,31.24622917175293,"85 Oakridge Place",true,https://picsum.photos/1962/1073,http://dummyimage.com/30x30.png/5fa2dd/ffffff,184,6,147,3.0,21
127,Klein-Schuppe,58.11983108520508,30.30689811706543,"428 Sugar Way",false,https://picsum.photos/1957/1034,http://dummyimage.com/30x30.png/cc0000/ffffff,187,15,357,3.0,15
128,Parisian-Weber,58.60784149169922,35.818599700927734,"3 Mosinee Avenue",false,https://picsum.photos/1945/1019,http://dummyimage.com/30x30.png/dddddd/000000,188,54,369,3.0,5
134,Corkery LLC,57.149742126464844,31.170955657958984,"86510 Hallows Junction",true,https://picsum.photos/1904/1073,http://dummyimage.com/30x30.png/5fa2dd/ffffff,194,23,145,2.0,12
136,"Schmitt, Lakin and Harris",58.38407897949219,33.90174102783203,"78 International Center",true,https://picsum.photos/1988/1091,http://dummyimage.com/30x30.png/5fa2dd/ffffff,196,41,190,5.0,7
51,Kutch Inc,58.591697692871094,35.796627044677734,"6 Arkansas Parkway",false,https://picsum.photos/1984/1046,http://dummyimage.com/30x30.png/5fa2dd/ffffff,111,53,164,4.0,5
54,West and Sons,59.121524810791016,33.35114288330078,"7218 Thackeray Court",true,https://picsum.photos/1936/1064,http://dummyimage.com/30x30.png/dddddd/000000,114,47,166,1.0,3
56,Veum-Pfeffer,58.65080261230469,32.345462799072266,"10204 Carey Circle",true,https://picsum.photos/1951/1050,http://dummyimage.com/30x30.png/5fa2dd/ffffff,116,43,423,3.0,2
59,Anderson-Aufderhar,57.967193603515625,33.27277755737305,"9750 Fallview Circle",false,https://picsum.photos/1994/1087,http://dummyimage.com/30x30.png/ff4444/ffffff,119,35,378,4.0,9
60,Feil and Sons,58.002140045166016,30.783000946044922,"801 Susan Plaza",false,https://picsum.photos/1912/1078,http://dummyimage.com/30x30.png/ff4444/ffffff,120,18,491,3.0,14
65,Rolfson-Wiegand,57.31475067138672,32.07964324951172,"683 Tomscot Trail",true,https://picsum.photos/1990/1063,http://dummyimage.com/30x30.png/5fa2dd/ffffff,125,27,489,5.0,11
70,"Nader, Ryan and Kilback",57.99040603637695,30.77029800415039,"1349 Crescent Oaks Lane",false,https://picsum.photos/1931/1041,http://dummyimage.com/30x30.png/5fa2dd/ffffff,130,17,124,5.0,14
71,"Frami, Brown and Gleason",57.76362228393555,30.601722717285156,"23 Little Fleur Way",false,https://picsum.photos/1998/1026,http://dummyimage.com/30x30.png/5fa2dd/ffffff,131,20,138,1.0,14
75,Pagac-Harber,58.25010299682617,32.52373123168945,"270 Lien Plaza",true,https://picsum.photos/1983/1077,http://dummyimage.com/30x30.png/cc0000/ffffff,135,37,394,5.0,20
77,Pollich-Ernser,58.388668060302734,33.911354064941406,"1 Corscot Trail",false,https://picsum.photos/1970/1064,http://dummyimage.com/30x30.png/cc0000/ffffff,137,42,270,4.0,7
80,"Mills, Jaskolski and Ernser",58.00486755371094,30.8050594329834,"6389 Clemons Pass",false,https://picsum.photos/1971/1020,http://dummyimage.com/30x30.png/dddddd/000000,140,19,474,4.0,14
81,Ledner Group,57.39387893676758,31.40201187133789,"766 Judy Lane",false,https://picsum.photos/1905/1010,http://dummyimage.com/30x30.png/cc0000/ffffff,141,21,471,3.0,13
82,Legros-Stehr,58.52122497558594,31.266399383544922,"2 Bobwhite Road",false,https://picsum.photos/1970/1064,http://dummyimage.com/30x30.png/cc0000/ffffff,142,2,154,4.0,21
86,"Jacobs, Ortiz and Reichert",57.39716339111328,31.048213958740234,"1827 La Follette Plaza",false,https://picsum.photos/1920/1069,http://dummyimage.com/30x30.png/cc0000/ffffff,146,22,120,1.0,13
87,"Gibson, Hilpert and Boyer",58.5947380065918,35.80400848388672,"8 Gateway Drive",true,https://picsum.photos/1979/1015,http://dummyimage.com/30x30.png/5fa2dd/ffffff,147,52,362,1.0,5
55,Krajcik-Lind,58.34968566894531,30.2872314453125,"39 Trailsway Pass",true,https://picsum.photos/1905/1075,http://dummyimage.com/30x30.png/cc0000/ffffff,115,,122,5.0,16
57,"Kris, McClure and Glover",58.11860656738281,30.3051815032959,"95 Jackson Park",true,https://picsum.photos/1960/1002,http://dummyimage.com/30x30.png/5fa2dd/ffffff,117,,212,4.0,15
106,Rogahn-Schneider,57.839542388916016,33.22865676879883,"8 Pond Circle",true,https://picsum.photos/1901/1017,http://dummyimage.com/30x30.png/cc0000/ffffff,166,,132,3.0,9
108,Schuster-Franecki,57.98871994018555,33.24222183227539,"74 Hauk Terrace",false,https://picsum.photos/1943/1032,http://dummyimage.com/30x30.png/5fa2dd/ffffff,168,,410,3.0,9
